[
  {"id": "1", "name": "Sandton City Locker", "address": "Sandton City Mall, 83 Rivonia Rd, Sandton", "lat": -26.1076, "lng": 28.0567},
  {"id": "2", "name": "Mall of Africa Locker", "address": "Magwa Crescent, Midrand", "lat": -26.0152, "lng": 28.1080},
  {"id": "3", "name": "Menlyn Park Locker", "address": "Atterbury Rd, Pretoria", "lat": -25.7827, "lng": 28.2755},
  {"id": "4", "name": "Gateway Theatre of Shopping", "address": "1 Palm Blvd, Umhlanga", "lat": -29.7252, "lng": 31.0655},
  {"id": "5", "name": "V&A Waterfront Locker", "address": "19 Dock Rd, Cape Town", "lat": -33.9036, "lng": 18.4205},
  {"id": "6", "name": "Canal Walk Locker", "address": "Century Blvd, Century City", "lat": -33.8929, "lng": 18.5140},
  {"id": "7", "name": "Rosebank Mall Locker", "address": "50 Bath Ave, Rosebank", "lat": -26.1458, "lng": 28.0416},
  {"id": "8", "name": "Clearwater Mall Locker", "address": "Hendrik Potgieter Rd, Strubens Valley", "lat": -26.1268, "lng": 27.9015},
  {"id": "9", "name": "Eastgate Shopping Centre", "address": "43 Bradford Rd, Bedfordview", "lat": -26.1793, "lng": 28.1171},
  {"id": "10", "name": "The Pavilion Locker", "address": "Jack Martens Dr, Westville", "lat": -29.8504, "lng": 30.9351},
  {"id": "11", "name": "Fourways Mall Locker", "address": "Fourways Blvd, Fourways", "lat": -26.0156, "lng": 28.0053},
  {"id": "12", "name": "Cresta Shopping Centre", "address": "Beyers Naude Dr, Randburg", "lat": -26.1293, "lng": 27.9712},
  {"id": "13", "name": "Centurion Mall Locker", "address": "Heuwel Rd, Centurion", "lat": -25.8596, "lng": 28.1887},
  {"id": "14", "name": "Tyger Valley Centre", "address": "Bill Bezuidenhout Ave, Bellville", "lat": -33.8744, "lng": 18.6366},
  {"id": "15", "name": "Somerset Mall Locker", "address": "Centenary Dr, Somerset West", "lat": -34.0847, "lng": 18.8239},
  {"id": "16", "name": "Baywest Mall Locker", "address": "100 Baywest Blvd, Port Elizabeth", "lat": -33.9602, "lng": 25.5229},
  {"id": "17", "name": "Greenacres Shopping Centre", "address": "Ring Rd, Port Elizabeth", "lat": -33.9455, "lng": 25.5867},
  {"id": "18", "name": "Mimosa Mall Locker", "address": "Kellner St, Bloemfontein", "lat": -29.1086, "lng": 26.2041},
  {"id": "19", "name": "Loch Logan Waterfront", "address": "Henry St, Bloemfontein", "lat": -29.1166, "lng": 26.2125},
  {"id": "20", "name": "Riverside Mall Locker", "address": "R40 White River Rd, Nelspruit", "lat": -25.4385, "lng": 30.9654},
  {"id": "21", "name": "Highveld Mall Locker", "address": "Mandela St, Witbank", "lat": -25.8856, "lng": 29.2335},
  {"id": "22", "name": "Mall of the North Locker", "address": "R40, Polokwane", "lat": -23.8752, "lng": 29.5103},
  {"id": "23", "name": "I'langa Mall Locker", "address": "Bitterbessie St, Nelspruit", "lat": -25.4697, "lng": 30.9575},
  {"id": "24", "name": "Midlands Mall Locker", "address": "Sanctuary Rd, Pietermaritzburg", "lat": -29.5756, "lng": 30.3705},
  {"id": "25", "name": "Hemingways Mall Locker", "address": "Western Ave, East London", "lat": -32.9718, "lng": 27.8997},
  {"id": "26", "name": "Vincent Park Locker", "address": "Devereux Ave, East London", "lat": -32.9856, "lng": 27.9097},
  {"id": "27", "name": "Garden Route Mall", "address": "Knysna Rd, George", "lat": -33.9856, "lng": 22.4839},
  {"id": "28", "name": "Langeberg Mall Locker", "address": "Louis Fourie Rd, Mossel Bay", "lat": -34.1568, "lng": 22.1129},
  {"id": "29", "name": "Table Bay Mall Locker", "address": "Berkshire Blvd, Sunningdale", "lat": -33.7975, "lng": 18.4981},
  {"id": "30", "name": "Blue Route Mall Locker", "address": "Tokai Rd, Tokai", "lat": -34.0722, "lng": 18.4556},
  {"id": "31", "name": "Capegate Shopping Centre", "address": "Okavango Rd, Brackenfell", "lat": -33.8547, "lng": 18.6835},
  {"id": "32", "name": "Woodlands Boulevard", "address": "Garsfontein Rd, Pretoria East", "lat": -25.8256, "lng": 28.3075},
  {"id": "33", "name": "Brooklyn Mall Locker", "address": "Veale St, Pretoria", "lat": -25.7725, "lng": 28.2386},
  {"id": "34", "name": "Kolonnade Shopping Centre", "address": "Sefako Makgatho Dr, Pretoria", "lat": -25.6797, "lng": 28.2435},
  {"id": "35", "name": "Alberton City Locker", "address": "Voortrekker Rd, Alberton", "lat": -26.2647, "lng": 28.1205},
  {"id": "36", "name": "Southgate Mall Locker", "address": "Rifle Range Rd, Johannesburg South", "lat": -26.2736, "lng": 27.9739},
  {"id": "37", "name": "Jabulani Mall Locker", "address": "Bolani Rd, Soweto", "lat": -26.2486, "lng": 27.8547},
  {"id": "38", "name": "Maponya Mall Locker", "address": "Chris Hani Rd, Soweto", "lat": -26.2597, "lng": 27.9042},
  {"id": "39", "name": "Westgate Shopping Centre", "address": "Ontondekkers Rd, Roodepoort", "lat": -26.1525, "lng": 27.8486},
  {"id": "40", "name": "Northgate Shopping Centre", "address": "Northumberland Ave, North Riding", "lat": -26.0636, "lng": 27.9475},
  {"id": "41", "name": "Ballito Junction Locker", "address": "Leonora Dr, Ballito", "lat": -29.5297, "lng": 31.2056},
  {"id": "42", "name": "Cornubia Mall Locker", "address": "Flanders Dr, Mount Edgecombe", "lat": -29.7125, "lng": 31.0556},
  {"id": "43", "name": "Galleria Mall Locker", "address": "Moss Kolnik Dr, Amanzimtoti", "lat": -30.0436, "lng": 30.8925},
  {"id": "44", "name": "Boardwalk Mall Locker", "address": "Eros Rd, Richards Bay", "lat": -28.7567, "lng": 32.0467},
  {"id": "45", "name": "Diamond Pavilion Locker", "address": "Oliver Rd, Kimberley", "lat": -28.7547, "lng": 24.7836},
  {"id": "46", "name": "Mooirivier Mall Locker", "address": "Nelson Mandela Dr, Potchefstroom", "lat": -26.7117, "lng": 27.1025},
  {"id": "47", "name": "Matlosana Mall Locker", "address": "Joe Slovo Rd, Klerksdorp", "lat": -26.8525, "lng": 26.6856},
  {"id": "48", "name": "Waterfall Mall Locker", "address": "Augrabies Ave, Rustenburg", "lat": -25.7025, "lng": 27.2556},
  {"id": "49", "name": "Vaal Mall Locker", "address": "Rossini Blvd, Vanderbijlpark", "lat": -26.6975, "lng": 27.8256},
  {"id": "50", "name": "Paarl Mall Locker", "address": "Cecilia St, Paarl", "lat": -33.7625, "lng": 18.9756},
  {"id": "51", "name": "Walmer Park Locker", "address": "Main Rd, Walmer, PE", "lat": -33.9806, "lng": 25.5786},
  {"id": "52", "name": "The Glen Shopping Centre", "address": "Orpen Rd, Oakdene", "lat": -26.2575, "lng": 28.0506},
  {"id": "53", "name": "Greenstone Shopping Centre", "address": "Modderfontein Rd, Edenvale", "lat": -26.1172, "lng": 28.1475},
  {"id": "54", "name": "Festival Mall Locker", "address": "Kelvin St, Kempton Park", "lat": -26.1086, "lng": 28.2397},
  {"id": "55", "name": "Irene Village Mall", "address": "Nellmapius Dr, Irene", "lat": -25.8672, "lng": 28.2561},
  {"id": "56", "name": "Musgrave Centre Locker", "address": "Musgrave Rd, Durban", "lat": -29.8475, "lng": 31.0025},
  {"id": "57", "name": "Westwood Mall Locker", "address": "Lincoln Terrace, Westville", "lat": -29.8297, "lng": 30.9636},
  {"id": "58", "name": "La Lucia Mall Locker", "address": "William Campbell Dr, La Lucia", "lat": -29.7497, "lng": 31.0625},
  {"id": "59", "name": "Chatsworth Centre Locker", "address": "Joyhurst St, Chatsworth", "lat": -29.9075, "lng": 30.8936},
  {"id": "60", "name": "Liberty Midlands Mall", "address": "Sanctuary Rd, PMB", "lat": -29.5756, "lng": 30.3705},
  {"id": "61", "name": "N1 City Mall Locker", "address": "Louwtjie Rothman St, Goodwood", "lat": -33.8925, "lng": 18.5586},
  {"id": "62", "name": "Kenilworth Centre Locker", "address": "Doncaster Rd, Kenilworth", "lat": -33.9925, "lng": 18.4847},
  {"id": "63", "name": "Cavendish Square Locker", "address": "Dreyer St, Claremont", "lat": -33.9806, "lng": 18.4656},
  {"id": "64", "name": "Bayside Mall Locker", "address": "Blaauwberg Rd, Table View", "lat": -33.8225, "lng": 18.4906},
  {"id": "65", "name": "Eikestad Mall Locker", "address": "Andringa St, Stellenbosch", "lat": -33.9356, "lng": 18.8625},
  {"id": "66", "name": "Whale Coast Mall Locker", "address": "R43, Hermanus", "lat": -34.4206, "lng": 19.2056},
  {"id": "67", "name": "Heiderand Mall Locker", "address": "Melkhout St, Mossel Bay", "lat": -34.1856, "lng": 22.1025},
  {"id": "68", "name": "Knysna Mall Locker", "address": "Main Rd, Knysna", "lat": -34.0356, "lng": 23.0475},
  {"id": "69", "name": "Plettenberg Bay Market Square", "address": "Beacon Way, Plett", "lat": -34.0475, "lng": 23.3656},
  {"id": "70", "name": "Jeffreys Bay Fountains Mall", "address": "R102, Jeffreys Bay", "lat": -34.0256, "lng": 24.9025},
  {"id": "71", "name": "Mthatha Plaza Locker", "address": "Nelson Mandela Dr, Mthatha", "lat": -31.5897, "lng": 28.7856},
  {"id": "72", "name": "Newcastle Mall Locker", "address": "Ladysmith Rd, Newcastle", "lat": -27.7656, "lng": 29.9325},
  {"id": "73", "name": "Goldfields Mall Locker", "address": "Stateway, Welkom", "lat": -27.9756, "lng": 26.7356},
  {"id": "74", "name": "Kuruman Mall Locker", "address": "Livingstone St, Kuruman", "lat": -27.4525, "lng": 23.4325},
  {"id": "75", "name": "Upington Kalahari Mall", "address": "Van Riebeeck St, Upington", "lat": -28.4456, "lng": 21.2456}
]
